[
  {
    "id": 1,
    "name": "Taj Mahal, Agra",
    "description": "The iconic white marble mausoleum, one of the Seven Wonders of the World, showcasing Mughal architecture and eternal love.",
    "rating": 4.9,
    "image": "fas fa-monument",
    "imageUrl": "https://images.unsplash.com/photo-1524492412937-b28074a5d7da?ixlib=rb-4.0.3&ixid=M3wxMjA3fDB8MHxwaG90by1wYWdlfHx8fGVufDB8fHx8fA%3D%3D&auto=format&fit=crop&w=1000&q=80",
    "category": "history",
    "location": "Agra, Uttar Pradesh",
    "highlights": ["UNESCO World Heritage", "Mughal Architecture", "Sunrise/Sunset Views", "Historical Significance"],
    "address": "Dharmapuri, Forest Colony, Tajganj, Agra, Uttar Pradesh 282001",
    "phone": "(0562) 222-6431",
    "website": "www.tajmahal.gov.in",
    "hours": "6:00 AM - 6:30 PM (Daily)",
    "amenities": ["Audio Guide", "Photography", "Wheelchair Access", "Gift Shop"],
    "state": "Uttar Pradesh",
    "city": "Agra"
  },
  {
    "id": 2,
    "name": "Amer Fort, Jaipur",
    "description": "Magnificent hilltop fort with stunning architecture, mirror work, and panoramic views of the Pink City.",
    "rating": 4.8,
    "image": "fas fa-landmark",
    "imageUrl": "https://images.unsplash.com/photo-1564507592333-c60657eea523?ixlib=rb-4.0.3&ixid=M3wxMjA3fDB8MHxwaG90by1wYWdlfHx8fGVufDB8fHx8fA%3D%3D&auto=format&fit=crop&w=1000&q=80",
    "category": "history",
    "location": "Jaipur, Rajasthan",
    "highlights": ["UNESCO World Heritage", "Rajput Architecture", "Elephant Rides", "Light & Sound Show"],
    "address": "Devisinghpura, Amer, Jaipur, Rajasthan 302001",
    "phone": "(0141) 253-0293",
    "website": "www.amerfort.org",
    "hours": "8:00 AM - 6:00 PM (Daily)",
    "amenities": ["Elephant Rides", "Audio Guide", "Photography", "Restaurant"],
    "state": "Rajasthan",
    "city": "Jaipur"
  },
  {
    "id": 3,
    "name": "Rishikesh - Yoga Capital",
    "description": "Spiritual city on the banks of Ganges, known as the Yoga Capital of the World with ashrams and adventure activities.",
    "rating": 4.7,
    "image": "fas fa-om",
    "imageUrl": "https://images.unsplash.com/photo-1506905925346-21bda4d32df4?ixlib=rb-4.0.3&ixid=M3wxMjA3fDB8MHxwaG90by1wYWdlfHx8fGVufDB8fHx8fA%3D%3D&auto=format&fit=crop&w=1000&q=80",
    "category": "culture",
    "location": "Rishikesh, Uttarakhand",
    "highlights": ["Yoga & Meditation", "River Rafting", "Ganga Aarti", "Spiritual Ashrams"],
    "address": "Rishikesh, Uttarakhand 249201",
    "phone": "(0135) 243-0200",
    "website": "www.rishikeshtourism.org",
    "hours": "24/7 (Open all day)",
    "amenities": ["Yoga Classes", "Ashram Stay", "Adventure Sports", "Spiritual Tours"],
    "state": "Uttarakhand",
    "city": "Rishikesh"
  },
  {
    "id": 4,
    "name": "Kerala Backwaters",
    "description": "UNESCO recognized network of lagoons, lakes, and canals with traditional houseboats and unique ecosystem.",
    "rating": 4.9,
    "image": "fas fa-water",
    "imageUrl": "https://images.unsplash.com/photo-1583417319078-cf7d8d9d8c9e?ixlib=rb-4.0.3&ixid=M3wxMjA3fDB8MHxwaG90by1wYWdlfHx8fGVufDB8fHx8fA%3D%3D&auto=format&fit=crop&w=1000&q=80",
    "category": "nature",
    "location": "Alleppey, Kerala",
    "highlights": ["Houseboat Cruises", "UNESCO Heritage", "Unique Ecosystem", "Traditional Culture"],
    "address": "Alleppey, Kerala 688001",
    "phone": "(0477) 225-3308",
    "website": "www.keralatourism.org",
    "hours": "6:00 AM - 6:00 PM (Daily)",
    "amenities": ["Houseboat Booking", "Guide Services", "Photography", "Local Cuisine"],
    "state": "Kerala",
    "city": "Alleppey"
  },
  {
    "id": 5,
    "name": "Red Fort, Delhi",
    "description": "Historic fort complex and UNESCO World Heritage Site, symbol of Mughal power and Indian independence.",
    "rating": 4.6,
    "image": "fas fa-fort",
    "imageUrl": "https://images.unsplash.com/photo-1524492412937-b28074a5d7da?ixlib=rb-4.0.3&ixid=M3wxMjA3fDB8MHxwaG90by1wYWdlfHx8fGVufDB8fHx8fA%3D%3D&auto=format&fit=crop&w=1000&q=80",
    "category": "history",
    "location": "New Delhi, Delhi",
    "highlights": ["UNESCO World Heritage", "Mughal Architecture", "Independence Day", "Light & Sound Show"],
    "address": "Netaji Subhash Marg, Lal Qila, Old Delhi, New Delhi, Delhi 110006",
    "phone": "(011) 2327-7705",
    "website": "www.redfort.gov.in",
    "hours": "9:30 AM - 4:30 PM (Daily except Monday)",
    "amenities": ["Audio Guide", "Photography", "Museum", "Gift Shop"],
    "state": "Delhi",
    "city": "New Delhi"
  },
  {
    "id": 6,
    "name": "Brihadeshwara Temple, Thanjavur",
    "description": "UNESCO World Heritage Site, an architectural marvel of Chola dynasty with massive gopuram and intricate carvings.",
    "rating": 4.8,
    "image": "fas fa-temple",
    "imageUrl": "https://images.unsplash.com/photo-1578662996442-48f60103fc96?ixlib=rb-4.0.3&ixid=M3wxMjA3fDB8MHxwaG90by1wYWdlfHx8fGVufDB8fHx8fA%3D%3D&auto=format&fit=crop&w=1000&q=80",
    "category": "culture",
    "location": "Thanjavur, Tamil Nadu",
    "highlights": ["UNESCO World Heritage", "Chola Architecture", "Massive Gopuram", "Ancient Carvings"],
    "address": "Membalam Rd, Balaganapathy Nagar, Thanjavur, Tamil Nadu 613007",
    "phone": "(04362) 241-273",
    "website": "www.tamilnadutourism.org",
    "hours": "6:00 AM - 12:30 PM, 4:00 PM - 8:30 PM (Daily)",
    "amenities": ["Temple Guide", "Photography", "Prasad", "Parking"],
    "state": "Tamil Nadu",
    "city": "Thanjavur"
  },
  {
    "id": 7,
    "name": "Gir National Park",
    "description": "Home to the Asiatic Lion, the only place in the world where these majestic creatures can be found in the wild.",
    "rating": 4.9,
    "image": "fas fa-lion",
    "imageUrl": "https://images.unsplash.com/photo-1564349683136-77e08dba1ef7?ixlib=rb-4.0.3&ixid=M3wxMjA3fDB8MHxwaG90by1wYWdlfHx8fGVufDB8fHx8fA%3D%3D&auto=format&fit=crop&w=1000&q=80",
    "category": "nature",
    "location": "Gir, Gujarat",
    "highlights": ["Asiatic Lions", "Wildlife Safari", "Biodiversity", "Conservation"],
    "address": "Gir National Park, Sasan Gir, Gujarat 362135",
    "phone": "(02877) 285-540",
    "website": "www.girnationalpark.com",
    "hours": "6:00 AM - 6:00 PM (Daily)",
    "amenities": ["Safari Booking", "Guide Services", "Accommodation", "Restaurant"],
    "state": "Gujarat",
    "city": "Sasan Gir"
  },
  {
    "id": 8,
    "name": "Manali - Hill Station",
    "description": "Picturesque hill station in Himachal Pradesh, famous for adventure sports, snow-capped mountains, and apple orchards.",
    "rating": 4.7,
    "image": "fas fa-mountain",
    "imageUrl": "https://images.unsplash.com/photo-1544551763-46a013bb70d5?ixlib=rb-4.0.3&ixid=M3wxMjA3fDB8MHxwaG90by1wYWdlfHx8fGVufDB8fHx8fA%3D%3D&auto=format&fit=crop&w=1000&q=80",
    "category": "nature",
    "location": "Manali, Himachal Pradesh",
    "highlights": ["Snow Mountains", "Adventure Sports", "Apple Orchards", "Trekking"],
    "address": "Manali, Himachal Pradesh 175131",
    "phone": "(01902) 253-312",
    "website": "www.himachaltourism.gov.in",
    "hours": "24/7 (Open all day)",
    "amenities": ["Adventure Sports", "Trekking Guides", "Accommodation", "Restaurants"],
    "state": "Himachal Pradesh",
    "city": "Manali"
  },
  {
    "id": 9,
    "name": "ISRO Space Center, Bangalore",
    "description": "India's premier space research organization showcasing space technology, rocket exhibits, and space science education.",
    "rating": 4.8,
    "image": "fas fa-rocket",
    "imageUrl": "https://images.unsplash.com/photo-1518709268805-4e9042af2176?ixlib=rb-4.0.3&ixid=M3wxMjA3fDB8MHxwaG90by1wYWdlfHx8fGVufDB8fHx8fA%3D%3D&auto=format&fit=crop&w=1000&q=80",
    "category": "science",
    "location": "Bangalore, Karnataka",
    "highlights": ["Space Technology", "Rocket Exhibits", "Science Education", "ISRO Museum"],
    "address": "ISRO Headquarters, Antariksh Bhavan, New BEL Road, Bangalore, Karnataka 560231",
    "phone": "(080) 2347-5200",
    "website": "www.isro.gov.in",
    "hours": "9:00 AM - 5:00 PM (Mon-Fri)",
    "amenities": ["Museum", "Educational Tours", "Gift Shop", "Parking"],
    "state": "Karnataka",
    "city": "Bangalore"
  },
  {
    "id": 10,
    "name": "Ajanta & Ellora Caves",
    "description": "UNESCO World Heritage Sites featuring ancient rock-cut caves with Buddhist, Hindu, and Jain sculptures and paintings.",
    "rating": 4.9,
    "image": "fas fa-mountain",
    "imageUrl": "https://images.unsplash.com/photo-1578662996442-48f60103fc96?ixlib=rb-4.0.3&ixid=M3wxMjA3fDB8MHxwaG90by1wYWdlfHx8fGVufDB8fHx8fA%3D%3D&auto=format&fit=crop&w=1000&q=80",
    "category": "history",
    "location": "Aurangabad, Maharashtra",
    "highlights": ["UNESCO World Heritage", "Rock-cut Architecture", "Ancient Paintings", "Religious Art"],
    "address": "Ajanta Caves, Maharashtra 431117",
    "phone": "(0240) 244-1444",
    "website": "www.ajanta-ellora.org",
    "hours": "6:00 AM - 6:00 PM (Daily except Tuesday)",
    "amenities": ["Audio Guide", "Photography", "Museum", "Restaurant"],
    "state": "Maharashtra",
    "city": "Aurangabad"
  },
  {
    "id": 11,
    "name": "Victoria Memorial, Kolkata",
    "description": "Magnificent marble building dedicated to Queen Victoria, now a museum showcasing Indian history and art.",
    "rating": 4.6,
    "image": "fas fa-museum",
    "imageUrl": "https://images.unsplash.com/photo-1481627834876-b7833e8f5570?ixlib=rb-4.0.3&ixid=M3wxMjA3fDB8MHxwaG90by1wYWdlfHx8fGVufDB8fHx8fA%3D%3D&auto=format&fit=crop&w=1000&q=80",
    "category": "culture",
    "location": "Kolkata, West Bengal",
    "highlights": ["Colonial Architecture", "Museum", "Art Gallery", "Historical Significance"],
    "address": "Victoria Memorial Hall, 1, Queens Way, Maidan, Kolkata, West Bengal 700071",
    "phone": "(033) 2223-1890",
    "website": "www.victoriamemorial-cal.org",
    "hours": "10:00 AM - 5:00 PM (Daily except Monday)",
    "amenities": ["Museum", "Audio Guide", "Photography", "Gift Shop"],
    "state": "West Bengal",
    "city": "Kolkata"
  },
  {
    "id": 12,
    "name": "Rann of Kutch",
    "description": "Seasonal salt marsh in Gujarat, famous for its white salt desert, wildlife, and the Rann Utsav festival.",
    "rating": 4.8,
    "image": "fas fa-sun",
    "imageUrl": "https://images.unsplash.com/photo-1564349683136-77e08dba1ef7?ixlib=rb-4.0.3&ixid=M3wxMjA3fDB8MHxwaG90by1wYWdlfHx8fGVufDB8fHx8fA%3D%3D&auto=format&fit=crop&w=1000&q=80",
    "category": "nature",
    "location": "Kutch, Gujarat",
    "highlights": ["Salt Desert", "Wildlife", "Rann Utsav", "Unique Landscape"],
    "address": "Rann of Kutch, Gujarat 370001",
    "phone": "(02832) 220-011",
    "website": "www.gujarattourism.com",
    "hours": "6:00 AM - 6:00 PM (Daily)",
    "amenities": ["Desert Safari", "Accommodation", "Guide Services", "Photography"],
    "state": "Gujarat",
    "city": "Bhuj"
  }
]